{
"type": "FeatureCollection",
"crs": { "type": "name", "properties": { "name": "urn:ogc:def:crs:OGC:1.3:CRS84" } },
                                                                                
"features": [
{ "type": "Feature", "properties": { "id": "200", "name": "Brčko distrikt Bosne i Hercegovine" }, "geometry": { "type": "Point", "coordinates": [ 18.732303798422706, 44.824170875781974 ] } },
{ "type": "Feature", "properties": { "id": "018", "name": "Vukosavlje" }, "geometry": { "type": "Point", "coordinates": [ 19.323437464182433, 44.17552363046984 ] } },
{ "type": "Feature", "properties": { "id": "034", "name": "Banja Luka" }, "geometry": { "type": "Point", "coordinates": [ 17.07267217045651, 44.736166297969795 ] } },
{ "type": "Feature", "properties": { "id": "003", "name": "Bihac" }, "geometry": { "type": "Point", "coordinates": [ 16.027308910618085, 44.671017795531554 ] } },
{ "type": "Feature", "properties": { "id": "029", "name": "Bijeljina" }, "geometry": { "type": "Point", "coordinates": [ 19.167933501177565, 44.771486442112817 ] } },
{ "type": "Feature", "properties": { "id": "038", "name": "Doboj" }, "geometry": { "type": "Point", "coordinates": [ 18.028342062417099, 44.791442434216826 ] } },
{ "type": "Feature", "properties": { "id": "065", "name": "Jajce" }, "geometry": { "type": "Point", "coordinates": [ 17.309870694765845, 44.34111936571594 ] } },
{ "type": "Feature", "properties": { "id": "151", "name": "Mostar" }, "geometry": { "type": "Point", "coordinates": [ 17.811579383330152, 43.418088365378921 ] } },
{ "type": "Feature", "properties": { "id": "009", "name": "Prijedor" }, "geometry": { "type": "Point", "coordinates": [ 16.764850448311691, 44.950154486379411 ] } },
{ "type": "Feature", "properties": { "id": "182", "name": "Trebinje" }, "geometry": { "type": "Point", "coordinates": [ 18.303695815866213, 42.742285181664407 ] } },
{ "type": "Feature", "properties": { "id": "093", "name": "Zenica" }, "geometry": { "type": "Point", "coordinates": [ 17.92855946187175, 44.27323973701494 ] } },
{ "type": "Feature", "properties": { "id": "078", "name": "Banovići" }, "geometry": { "type": "Point", "coordinates": [ 18.468820884380271, 44.395856416578077 ] } },
{ "type": "Feature", "properties": { "id": "177", "name": "Berkovići" }, "geometry": { "type": "Point", "coordinates": [ 18.062246583590664, 43.10411863141735 ] } },
{ "type": "Feature", "properties": { "id": "180", "name": "Bileća" }, "geometry": { "type": "Point", "coordinates": [ 18.369997801484551, 42.969558460837845 ] } },
{ "type": "Feature", "properties": { "id": "010", "name": "Bosanska Gradiška\/Gradiška" }, "geometry": { "type": "Point", "coordinates": [ 17.175220273649249, 45.070469629389656 ] } },
{ "type": "Feature", "properties": { "id": "184", "name": "Bosanska Kostajnica\/Kostajnica" }, "geometry": { "type": "Point", "coordinates": [ 16.557579527858945, 45.181859234263626 ] } },
{ "type": "Feature", "properties": { "id": "004", "name": "Bosanska Krupa" }, "geometry": { "type": "Point", "coordinates": [ 16.162647280233369, 44.881544825891666 ] } },
{ "type": "Feature", "properties": { "id": "008", "name": "Bosanska\/Kozarska Dubica" }, "geometry": { "type": "Point", "coordinates": [ 16.810310470188742, 45.143867979781469 ] } },
{ "type": "Feature", "properties": { "id": "016", "name": "Bosanski Brod" }, "geometry": { "type": "Point", "coordinates": [ 18.056948730003324, 45.067731980522382 ] } },
{ "type": "Feature", "properties": { "id": "007", "name": "Bosanski Novi\/Novi" }, "geometry": { "type": "Point", "coordinates": [ 16.441146808182733, 45.018036466849409 ] } },
{ "type": "Feature", "properties": { "id": "030", "name": "Bosanski Petrovac" }, "geometry": { "type": "Point", "coordinates": [ 16.326763959840381, 44.609731068903443 ] } },
{ "type": "Feature", "properties": { "id": "021", "name": "Bosanski Šamac\/Šamac" }, "geometry": { "type": "Point", "coordinates": [ 18.497158211466786, 44.992102851249804 ] } },
{ "type": "Feature", "properties": { "id": "084", "name": "Bosansko Grahovo" }, "geometry": { "type": "Point", "coordinates": [ 16.455642904082147, 44.158567969662826 ] } },
{ "type": "Feature", "properties": { "id": "117", "name": "Breza" }, "geometry": { "type": "Point", "coordinates": [ 18.289885416905765, 44.019136090241318 ] } },
{ "type": "Feature", "properties": { "id": "109", "name": "Bugojno" }, "geometry": { "type": "Point", "coordinates": [ 17.472208600553575, 44.035452963871855 ] } },
{ "type": "Feature", "properties": { "id": "113", "name": "Busovača" }, "geometry": { "type": "Point", "coordinates": [ 17.899562109188288, 44.079876403547615 ] } },
{ "type": "Feature", "properties": { "id": "005", "name": "Bužim" }, "geometry": { "type": "Point", "coordinates": [ 16.051716371680726, 45.064594851910748 ] } },
{ "type": "Feature", "properties": { "id": "169", "name": "Čajniče" }, "geometry": { "type": "Point", "coordinates": [ 19.112071427744524, 43.581321153100276 ] } },
{ "type": "Feature", "properties": { "id": "173", "name": "Čapljina" }, "geometry": { "type": "Point", "coordinates": [ 17.743143633012778, 43.099001629435783 ] } },
{ "type": "Feature", "properties": { "id": "002", "name": "Cazin" }, "geometry": { "type": "Point", "coordinates": [ 15.905202328220332, 44.988621536529465 ] } },
{ "type": "Feature", "properties": { "id": "052", "name": "Čelić" }, "geometry": { "type": "Point", "coordinates": [ 18.723286452845265, 44.692720519323935 ] } },
{ "type": "Feature", "properties": { "id": "035", "name": "Čelinac" }, "geometry": { "type": "Point", "coordinates": [ 17.426458217519432, 44.725097880549235 ] } },
{ "type": "Feature", "properties": { "id": "136", "name": "Centar" }, "geometry": { "type": "Point", "coordinates": [ 18.416955226467621, 43.900056085770856 ] } },
{ "type": "Feature", "properties": { "id": "172", "name": "Čitluk" }, "geometry": { "type": "Point", "coordinates": [ 17.692596758726999, 43.230904125674343 ] } },
{ "type": "Feature", "properties": { "id": "014", "name": "Derventa" }, "geometry": { "type": "Point", "coordinates": [ 17.918751883985411, 44.941310376129792 ] } },
{ "type": "Feature", "properties": { "id": "036", "name": "Doboj Istok" }, "geometry": { "type": "Point", "coordinates": [ 18.188818630261295, 44.736048105087839 ] } },
{ "type": "Feature", "properties": { "id": "037", "name": "Doboj Jug" }, "geometry": { "type": "Point", "coordinates": [ 18.055316481344395, 44.680559200049771 ] } },
{ "type": "Feature", "properties": { "id": "067", "name": "Dobretići" }, "geometry": { "type": "Point", "coordinates": [ 17.420794177375797, 44.389479544969156 ] } },
{ "type": "Feature", "properties": { "id": "020", "name": "Domaljevac-Šamac" }, "geometry": { "type": "Point", "coordinates": [ 18.561767551901632, 45.055460685322338 ] } },
{ "type": "Feature", "properties": { "id": "089", "name": "Donji Vakuf" }, "geometry": { "type": "Point", "coordinates": [ 17.374797237724781, 44.156206801008238 ] } },
{ "type": "Feature", "properties": { "id": "023", "name": "Donji Žabar" }, "geometry": { "type": "Point", "coordinates": [ 18.64669795712874, 44.956395466535326 ] } },
{ "type": "Feature", "properties": { "id": "057", "name": "Drvar" }, "geometry": { "type": "Point", "coordinates": [ 16.463123753007665, 44.360864464457293 ] } },
{ "type": "Feature", "properties": { "id": "058", "name": "Istočni Drvar" }, "geometry": { "type": "Point", "coordinates": [ 16.61573076722248, 44.408986058399805 ] } },
{ "type": "Feature", "properties": { "id": "132", "name": "Istočna Ilidža" }, "geometry": { "type": "Point", "coordinates": [ 18.369087300519016, 43.787312315713365 ] } },
{ "type": "Feature", "properties": { "id": "158", "name": "Istočni Mostar" }, "geometry": { "type": "Point", "coordinates": [ 18.014182967216428, 43.404964907845461 ] } },
{ "type": "Feature", "properties": { "id": "140", "name": "Istočno Novo Sarajevo" }, "geometry": { "type": "Point", "coordinates": [ 18.419266708340476, 43.804490245376037 ] } },
{ "type": "Feature", "properties": { "id": "138", "name": "Istočni Stari Grad" }, "geometry": { "type": "Point", "coordinates": [ 18.499021183927944, 43.879405330474683 ] } },
{ "type": "Feature", "properties": { "id": "165", "name": "Foča" }, "geometry": { "type": "Point", "coordinates": [ 18.777763229266419, 43.43260269726197 ] } },
{ "type": "Feature", "properties": { "id": "114", "name": "Fojnica" }, "geometry": { "type": "Point", "coordinates": [ 17.889018953887945, 43.950981465246585 ] } },
{ "type": "Feature", "properties": { "id": "164", "name": "Gacko" }, "geometry": { "type": "Point", "coordinates": [ 18.525529181916369, 43.196945177306787 ] } },
{ "type": "Feature", "properties": { "id": "085", "name": "Glamoč" }, "geometry": { "type": "Point", "coordinates": [ 16.852855105705004, 44.10139088708042 ] } },
{ "type": "Feature", "properties": { "id": "167", "name": "Goražde" }, "geometry": { "type": "Point", "coordinates": [ 18.869453280625216, 43.664699595514541 ] } },
{ "type": "Feature", "properties": { "id": "110", "name": "Gornji Vakuf\/Uskoplje" }, "geometry": { "type": "Point", "coordinates": [ 17.639118652490271, 43.925600306826524 ] } },
{ "type": "Feature", "properties": { "id": "044", "name": "Gračanica" }, "geometry": { "type": "Point", "coordinates": [ 18.326575126568908, 44.724250127743936 ] } },
{ "type": "Feature", "properties": { "id": "025", "name": "Gradačac" }, "geometry": { "type": "Point", "coordinates": [ 18.435521984601987, 44.842349238006868 ] } },
{ "type": "Feature", "properties": { "id": "149", "name": "Grude" }, "geometry": { "type": "Point", "coordinates": [ 17.375944118491237, 43.354415795707268 ] } },
{ "type": "Feature", "properties": { "id": "130", "name": "Hadžići" }, "geometry": { "type": "Point", "coordinates": [ 18.145682780706828, 43.77124157540991 ] } },
{ "type": "Feature", "properties": { "id": "123", "name": "Han Pijesak" }, "geometry": { "type": "Point", "coordinates": [ 18.937781474173661, 44.06511086420462 ] } },
{ "type": "Feature", "properties": { "id": "131", "name": "Ilidža" }, "geometry": { "type": "Point", "coordinates": [ 18.271801011281621, 43.82445245658694 ] } },
{ "type": "Feature", "properties": { "id": "118", "name": "Ilijaš" }, "geometry": { "type": "Point", "coordinates": [ 18.429789847882358, 44.010935113415727 ] } },
{ "type": "Feature", "properties": { "id": "126", "name": "Jablanica" }, "geometry": { "type": "Point", "coordinates": [ 17.713354522123815, 43.656621588704098 ] } },
{ "type": "Feature", "properties": { "id": "066", "name": "Jezero" }, "geometry": { "type": "Point", "coordinates": [ 17.179258449591501, 44.335695190441747 ] } },
{ "type": "Feature", "properties": { "id": "094", "name": "Kakanj" }, "geometry": { "type": "Point", "coordinates": [ 18.139345520039065, 44.161786325130848 ] } },
{ "type": "Feature", "properties": { "id": "080", "name": "Kalesija" }, "geometry": { "type": "Point", "coordinates": [ 18.848552302324709, 44.462568843217873 ] } },
{ "type": "Feature", "properties": { "id": "163", "name": "Kalinovik" }, "geometry": { "type": "Point", "coordinates": [ 18.425268180189104, 43.465894868682881 ] } },
{ "type": "Feature", "properties": { "id": "115", "name": "Kiseljak" }, "geometry": { "type": "Point", "coordinates": [ 18.066011314315837, 43.953656480114624 ] } },
{ "type": "Feature", "properties": { "id": "098", "name": "Kladanj" }, "geometry": { "type": "Point", "coordinates": [ 18.669041438319628, 44.258900178319237 ] } },
{ "type": "Feature", "properties": { "id": "059", "name": "Ključ" }, "geometry": { "type": "Point", "coordinates": [ 16.722707515085613, 44.586913260882255 ] } },
{ "type": "Feature", "properties": { "id": "127", "name": "Konjic" }, "geometry": { "type": "Point", "coordinates": [ 18.036380884182602, 43.64009707032109 ] } },
{ "type": "Feature", "properties": { "id": "070", "name": "Kotor Varoš" }, "geometry": { "type": "Point", "coordinates": [ 17.49218089591173, 44.541998892791035 ] } },
{ "type": "Feature", "properties": { "id": "129", "name": "Kreševo" }, "geometry": { "type": "Point", "coordinates": [ 18.030003450436581, 43.858566754149777 ] } },
{ "type": "Feature", "properties": { "id": "006", "name": "Krupa na Uni" }, "geometry": { "type": "Point", "coordinates": [ 16.292104700714088, 44.89842469544481 ] } },
{ "type": "Feature", "properties": { "id": "108", "name": "Kupres (RS)" }, "geometry": { "type": "Point", "coordinates": [ 17.160158123316453, 44.084583701618861 ] } },
{ "type": "Feature", "properties": { "id": "107", "name": "Kupres" }, "geometry": { "type": "Point", "coordinates": [ 17.250184502942389, 43.934999674127674 ] } },
{ "type": "Feature", "properties": { "id": "011", "name": "Laktaši" }, "geometry": { "type": "Point", "coordinates": [ 17.333351497090398, 44.889183120868871 ] } },
{ "type": "Feature", "properties": { "id": "106", "name": "Livno" }, "geometry": { "type": "Point", "coordinates": [ 16.870793261111178, 43.849939759259705 ] } },
{ "type": "Feature", "properties": { "id": "179", "name": "Ljubinje" }, "geometry": { "type": "Point", "coordinates": [ 18.123997339590129, 42.94582128664171 ] } },
{ "type": "Feature", "properties": { "id": "171", "name": "Ljubuški" }, "geometry": { "type": "Point", "coordinates": [ 17.518992884919324, 43.213174792151641 ] } },
{ "type": "Feature", "properties": { "id": "054", "name": "Lopare" }, "geometry": { "type": "Point", "coordinates": [ 18.861330474971368, 44.655634449678764 ] } },
{ "type": "Feature", "properties": { "id": "047", "name": "Lukavac" }, "geometry": { "type": "Point", "coordinates": [ 18.440492106471766, 44.53569706965898 ] } },
{ "type": "Feature", "properties": { "id": "042", "name": "Maglaj" }, "geometry": { "type": "Point", "coordinates": [ 18.119813428925518, 44.536514982800497 ] } },
{ "type": "Feature", "properties": { "id": "185", "name": "Milići" }, "geometry": { "type": "Point", "coordinates": [ 19.099656320026938, 44.144583038133426 ] } },
{ "type": "Feature", "properties": { "id": "024", "name": "Modriča" }, "geometry": { "type": "Point", "coordinates": [ 18.270081807036682, 44.924356751624522 ] } },
{ "type": "Feature", "properties": { "id": "064", "name": "Mrkonjic Grad" }, "geometry": { "type": "Point", "coordinates": [ 17.016048645295509, 44.394349293599312 ] } },
{ "type": "Feature", "properties": { "id": "174", "name": "Neum" }, "geometry": { "type": "Point", "coordinates": [ 17.767653865664023, 42.951205524974 ] } },
{ "type": "Feature", "properties": { "id": "161", "name": "Nevesinje" }, "geometry": { "type": "Point", "coordinates": [ 18.189788143285231, 43.267107978434922 ] } },
{ "type": "Feature", "properties": { "id": "168", "name": "Novo Goražde" }, "geometry": { "type": "Point", "coordinates": [ 19.017603719779437, 43.652788680552952 ] } },
{ "type": "Feature", "properties": { "id": "139", "name": "Novo Sarajevo" }, "geometry": { "type": "Point", "coordinates": [ 18.386988166322812, 43.85601172645864 ] } },
{ "type": "Feature", "properties": { "id": "007", "name": "Novi Grad" }, "geometry": { "type": "Point", "coordinates": [ 18.317656179438146, 43.870309877693018 ] } },
{ "type": "Feature", "properties": { "id": "111", "name": "Novi Travnik" }, "geometry": { "type": "Point", "coordinates": [ 17.672272594709785, 44.097958620631289 ] } },
{ "type": "Feature", "properties": { "id": "017", "name": "Odžak" }, "geometry": { "type": "Point", "coordinates": [ 18.323383524318192, 45.070272242892266 ] } },
{ "type": "Feature", "properties": { "id": "137", "name": "Stari Grad" }, "geometry": { "type": "Point", "coordinates": [ 18.462203825318138, 43.899904167909177 ] } },
{ "type": "Feature", "properties": { "id": "096", "name": "Olovo" }, "geometry": { "type": "Point", "coordinates": [ 18.562374429256284, 44.184962058203894 ] } },
{ "type": "Feature", "properties": { "id": "136", "name": "Orašje" }, "geometry": { "type": "Point", "coordinates": [ 18.678143682625695, 45.011213122704184 ] } },
{ "type": "Feature", "properties": { "id": "081", "name": "Osmaci" }, "geometry": { "type": "Point", "coordinates": [ 18.938562600461061, 44.388167636443043 ] } },
{ "type": "Feature", "properties": { "id": "033", "name": "Oštra Luka" }, "geometry": { "type": "Point", "coordinates": [ 16.653598356173511, 44.813668439256894 ] } },
{ "type": "Feature", "properties": { "id": "143", "name": "Pale" }, "geometry": { "type": "Point", "coordinates": [ 18.637035931102226, 43.805410300277273 ] } },
{ "type": "Feature", "properties": { "id": "144", "name": "Pale-Prača" }, "geometry": { "type": "Point", "coordinates": [ 18.813616909954586, 43.736578818729377 ] } },
{ "type": "Feature", "properties": { "id": "026", "name": "Pelagićevo" }, "geometry": { "type": "Point", "coordinates": [ 18.560005379104144, 44.898045986503909 ] } },
{ "type": "Feature", "properties": { "id": "031", "name": "Petrovac" }, "geometry": { "type": "Point", "coordinates": [ 16.545204028820194, 44.482791756798875 ] } },
{ "type": "Feature", "properties": { "id": "045", "name": "Petrovo" }, "geometry": { "type": "Point", "coordinates": [ 18.245769815465387, 44.630173104263172 ] } },
{ "type": "Feature", "properties": { "id": "148", "name": "Posušje" }, "geometry": { "type": "Point", "coordinates": [ 17.378451266019784, 43.523240805614186 ] } },
{ "type": "Feature", "properties": { "id": "013", "name": "Prnjavor" }, "geometry": { "type": "Point", "coordinates": [ 17.639252694953843, 44.865637442107932 ] } },
{ "type": "Feature", "properties": { "id": "125", "name": "Prozor" }, "geometry": { "type": "Point", "coordinates": [ 17.588123604568757, 43.789975312012338 ] } },
{ "type": "Feature", "properties": { "id": "181", "name": "Ravno" }, "geometry": { "type": "Point", "coordinates": [ 18.033631464200607, 42.79126388667504 ] } },
{ "type": "Feature", "properties": { "id": "061", "name": "Ribnik" }, "geometry": { "type": "Point", "coordinates": [ 16.806463024077438, 44.445772911259155 ] } },
{ "type": "Feature", "properties": { "id": "146", "name": "Rogatica" }, "geometry": { "type": "Point", "coordinates": [ 19.045930234279723, 43.84092298534943 ] } },
{ "type": "Feature", "properties": { "id": "170", "name": "Rudo" }, "geometry": { "type": "Point", "coordinates": [ 19.360371901331543, 43.652002366211917 ] } },
{ "type": "Feature", "properties": { "id": "032", "name": "Sanski Most" }, "geometry": { "type": "Point", "coordinates": [ 16.570358606683097, 44.744534321089304 ] } },
{ "type": "Feature", "properties": { "id": "082", "name": "Sapna" }, "geometry": { "type": "Point", "coordinates": [ 18.976426295943504, 44.524443989092575 ] } },
{ "type": "Feature", "properties": { "id": "101", "name": "Šekovići" }, "geometry": { "type": "Point", "coordinates": [ 18.867253895234512, 44.304042951038099 ] } },
{ "type": "Feature", "properties": { "id": "088", "name": "Šipovo" }, "geometry": { "type": "Point", "coordinates": [ 17.118687528759846, 44.20604780049986 ] } },
{ "type": "Feature", "properties": { "id": "150", "name": "Široki Brijeg" }, "geometry": { "type": "Point", "coordinates": [ 17.577335541319272, 43.384587611348799 ] } },
{ "type": "Feature", "properties": { "id": "068", "name": "Skender Vakuf\/Kneževo" }, "geometry": { "type": "Point", "coordinates": [ 17.383476216283, 44.482044473830868 ] } },
{ "type": "Feature", "properties": { "id": "121", "name": "Sokolac" }, "geometry": { "type": "Point", "coordinates": [ 18.776335791612791, 43.964912794295572 ] } },
{ "type": "Feature", "properties": { "id": "012", "name": "Srbac" }, "geometry": { "type": "Point", "coordinates": [ 17.569194610870227, 45.04194436394765 ] } },
{ "type": "Feature", "properties": { "id": "105", "name": "Srebrenica" }, "geometry": { "type": "Point", "coordinates": [ 19.341476999751166, 44.052013794306873 ] } },
{ "type": "Feature", "properties": { "id": "049", "name": "Srebrenik" }, "geometry": { "type": "Point", "coordinates": [ 18.517333629385057, 44.698185656983384 ] } },
{ "type": "Feature", "properties": { "id": "176", "name": "Stolac" }, "geometry": { "type": "Point", "coordinates": [ 17.903354506045613, 43.080294467929782 ] } },
{ "type": "Feature", "properties": { "id": "055", "name": "Teočak" }, "geometry": { "type": "Point", "coordinates": [ 18.995417231938305, 44.599756707458589 ] } },
{ "type": "Feature", "properties": { "id": "039", "name": "Tešanj" }, "geometry": { "type": "Point", "coordinates": [ 17.982050199855049, 44.635185856337507 ] } },
{ "type": "Feature", "properties": { "id": "074", "name": "Teslić" }, "geometry": { "type": "Point", "coordinates": [ 17.760089031556731, 44.567596704348652 ] } },
{ "type": "Feature", "properties": { "id": "124", "name": "Tomislavgrad" }, "geometry": { "type": "Point", "coordinates": [ 17.241897079030434, 43.678166791805886 ] } },
{ "type": "Feature", "properties": { "id": "091", "name": "Travnik" }, "geometry": { "type": "Point", "coordinates": [ 17.631389196372666, 44.277167947919907 ] } },
{ "type": "Feature", "properties": { "id": "141", "name": "Trnovo" }, "geometry": { "type": "Point", "coordinates": [ 18.374008302130026, 43.677546771027714 ] } },
{ "type": "Feature", "properties": { "id": "050", "name": "Tuzla" }, "geometry": { "type": "Point", "coordinates": [ 18.675507742475808, 44.556710141670024 ] } },
{ "type": "Feature", "properties": { "id": "056", "name": "Ugljevik" }, "geometry": { "type": "Point", "coordinates": [ 19.02154541284197, 44.668736089758369 ] } },
{ "type": "Feature", "properties": { "id": "183", "name": "Usora" }, "geometry": { "type": "Point", "coordinates": [ 17.985157697721132, 44.712105675616066 ] } },
{ "type": "Feature", "properties": { "id": "165", "name": "Ustikolina" }, "geometry": { "type": "Point", "coordinates": [ 18.70804403847642, 43.620956043168427 ] } },
{ "type": "Feature", "properties": { "id": "095", "name": "Vareš" }, "geometry": { "type": "Point", "coordinates": [ 18.357743042214555, 44.155672402856872 ] } },
{ "type": "Feature", "properties": { "id": "001", "name": "Velika Kladuša" }, "geometry": { "type": "Point", "coordinates": [ 15.913180439526535, 45.146839739792583 ] } },
{ "type": "Feature", "properties": { "id": "147", "name": "Višegrad" }, "geometry": { "type": "Point", "coordinates": [ 19.281214261431831, 43.796304253955853 ] } },
{ "type": "Feature", "properties": { "id": "116", "name": "Visoko" }, "geometry": { "type": "Point", "coordinates": [ 18.151562094846852, 44.007536878877815 ] } },
{ "type": "Feature", "properties": { "id": "112", "name": "Vitez" }, "geometry": { "type": "Point", "coordinates": [ 17.783180160728708, 44.128774549166046 ] } },
{ "type": "Feature", "properties": { "id": "103", "name": "Vlasenica" }, "geometry": { "type": "Point", "coordinates": [ 18.940749803617479, 44.201060876204323 ] } },
{ "type": "Feature", "properties": { "id": "135", "name": "Vogošća" }, "geometry": { "type": "Point", "coordinates": [ 18.356967918871216, 43.92654578965621 ] } },
{ "type": "Feature", "properties": { "id": "077", "name": "Zavidovići" }, "geometry": { "type": "Point", "coordinates": [ 18.244392450631118, 44.374974781670659 ] } },
{ "type": "Feature", "properties": { "id": "075", "name": "Žepče" }, "geometry": { "type": "Point", "coordinates": [ 18.009695943117801, 44.407999275866082 ] } },
{ "type": "Feature", "properties": { "id": "079", "name": "Živinice" }, "geometry": { "type": "Point", "coordinates": [ 18.662118481863512, 44.414432021050374 ] } },
{ "type": "Feature", "properties": { "id": "083", "name": "Zvornik" }, "geometry": { "type": "Point", "coordinates": [ 19.082299908149718, 44.436157291665772 ] } },
{ "type": "Feature", "properties": { "id": "104", "name": "Bratunac" }, "geometry": { "type": "Point", "coordinates": [ 18.258947808140327, 45.01110249123365 ] } },
{ "type": "Feature", "properties": { "id": "142", "name": "Trnovo (RS)" }, "geometry": { "type": "Point", "coordinates": [ 18.439756383608088, 43.695547526896625 ] } }
]
}
